$GBGSV,2,2,05,44,13,029,,0*4B
$GNGLL,5434.78283,N,00556.20515,W,141745.00,A,A*62
$GNRMC,141746.00,A,5434.78283,N,00556.20515,W,0.040,,181124,,,A,V*09
$GNVTG,,T,,M,0.040,N,0.075,K,A*3B
$GNGGA,141746.00,5434.78283,N,00556.20515,W,1,12,0.68,41.0,M,52.5,M,,*6E
$GNGSA,A,3,15,17,19,22,24,10,12,13,,,,,1.27,0.68,1.07,1*01
$GNGSA,A,3,07,19,27,21,,,,,,,,,1.27,0.68,1.07,3*06
$GNGSA,A,3,20,23,41,37,32,,,,,,,,1.27,0.68,1.07,4*0B
$GPGSV,3,1,09,10,32,289,31,12,50,200,33,13,09,138,26,15,31,164,27,1*6F
$GPGSV,3,2,09,17,27,054,18,19,32,090,32,22,22,052,10,24,85,119,33,1*62
$GPGSV,3,3,09,49,27,167,28,1*5F
$GPGSV,2,1,07,02,06,002,,14,02,049,,21,03,344,,23,26,242,,0*6F
$GPGSV,2,2,07,25,13,221,,32,18,311,,36,22,145,,0*58
$GAGSV,2,1,06,07,22,145,24,10,02,308,09,11,08,333,21,19,50,296,27,7*7B
$GAGSV,2,2,06,21,30,211,27,27,73,143,29,7*7E
$GAGSV,1,1,03,29,70,190,,30,36,057,,36,08,019,,0*42
$GBGSV,2,1,05,20,33,310,28,23,82,220,26,32,50,232,35,37,29,247,28,3*72
$GBGSV,2,2,05,41,16,180,26,3*4E
$GBGSV,2,1,05,25,40,074,,34,18,081,,40,17,029,,43,05,125,,0*7B
$GBGSV,2,2,05,44,13,029,,0*4B
$GNGLL,5434.78283,N,00556.20515,W,141746.00,A,A*61
$GNRMC,141747.00,A,5434.78283,N,00556.20516,W,0.028,,181124,,,A,V*05
$GNVTG,,T,,M,0.028,N,0.051,K,A*33
$GNGGA,141747.00,5434.78283,N,00556.20516,W,1,12,0.74,41.0,M,52.5,M,,*61
$GNGSA,A,3,15,17,19,22,24,10,12,13,,,,,1.33,0.74,1.11,1*0E
$GNGSA,A,3,07,19,27,21,,,,,,,,,1.33,0.74,1.11,3*09
$GNGSA,A,3,20,23,41,37,32,,,,,,,,1.33,0.74,1.11,4*04
$GPGSV,3,1,09,10,32,289,31,12,50,200,33,13,09,138,26,15,31,164,27,1*6F
$GPGSV,3,2,09,17,27,054,17,19,32,090,32,22,22,052,09,24,85,119,33,1*65
$GPGSV,3,3,09,49,27,167,28,1*5F
$GPGSV,2,1,07,02,06,002,,14,02,049,,21,03,344,,23,26,242,,0*6F
$GPGSV,2,2,07,25,13,221,,32,18,311,,36,22,145,,0*58
$GAGSV,2,1,06,07,22,145,25,10,02,308,07,11,08,333,21,19,50,296,27,7*74
$GAGSV,2,2,06,21,30,211,27,27,73,143,29,7*7E
$GAGSV,1,1,03,29,70,190,,30,36,057,,36,08,019,,0*42
$GBGSV,2,1,05,20,33,310,28,23,82,220,26,32,50,232,34,37,29,247,28,3*73
$GBGSV,2,2,05,41,15,180,26,3*4D
$GBGSV,2,1,05,25,40,074,,34,18,081,,40,17,029,,43,05,125,,0*7B
$GBGSV,2,2,05,44,13,029,,0*4B
$GNGLL,5434.78283,N,00556.20516,W,141747.00,A,A*63
$GNRMC,141748.00,A,5434.78283,N,00556.20516,W,0.037,,181124,,,A,V*04
$GNVTG,,T,,M,0.037,N,0.069,K,A*36
$GNGGA,141748.00,5434.78283,N,00556.20516,W,1,12,0.68,41.0,M,52.5,M,,*63
$GNGSA,A,3,15,17,19,22,24,10,12,13,,,,,1.27,0.68,1.07,1*01
$GNGSA,A,3,07,19,27,21,,,,,,,,,1.27,0.68,1.07,3*06
$GNGSA,A,3,20,23,41,37,32,,,,,,,,1.27,0.68,1.07,4*0B
$GPGSV,3,1,09,10,32,289,31,12,50,200,33,13,09,138,26,15,31,164,27,1*6F
$GPGSV,3,2,09,17,27,054,16,19,32,090,32,22,22,052,08,24,85,119,33,1*65
$GPGSV,3,3,09,49,27,167,29,1*5E
$GPGSV,2,1,07,02,06,002,,14,02,049,,21,03,344,,23,26,242,,0*6F
$GPGSV,2,2,07,25,13,221,,32,18,311,,36,22,145,,0*58
$GAGSV,2,1,06,07,22,145,25,10,02,308,11,11,08,333,21,19,50,296,27,7*73
$GAGSV,2,2,06,21,30,211,27,27,73,143,29,7*7E
$GAGSV,1,1,03,29,70,190,,30,36,057,,36,08,019,,0*42
$GBGSV,2,1,05,20,33,310,28,23,82,220,26,32,50,232,35,37,29,247,29,3*73
$GBGSV,2,2,05,41,15,180,26,3*4D
$GBGSV,2,1,05,25,40,074,,34,18,081,,40,17,029,,43,05,125,,0*7B
$GBGSV,2,2,05,44,13,029,,0*4B
$GNGLL,5434.78283,N,00556.20516,W,141748.00,A,A*6C
$GNRMC,141749.00,A,5434.78284,N,00556.20515,W,0.017,,181124,,,A,V*03
$GNVTG,,T,,M,0.017,N,0.032,K,A*3A
$GNGGA,141749.00,5434.78284,N,00556.20515,W,1,12,0.68,41.0,M,52.5,M,,*66
$GNGSA,A,3,15,17,19,22,24,10,12,13,,,,,1.27,0.68,1.07,1*01
$GNGSA,A,3,07,19,27,21,,,,,,,,,1.27,0.68,1.07,3*06
$GNGSA,A,3,20,23,41,37,32,,,,,,,,1.27,0.68,1.07,4*0B
$GPGSV,3,1,09,10,32,289,31,12,50,200,33,13,09,138,26,15,31,164,27,1*6F
$GPGSV,3,2,09,17,27,054,16,19,32,090,32,22,22,052,10,24,85,119,33,1*6C
$GPGSV,3,3,09,49,27,167,28,1*5F
$GPGSV,2,1,07,02,06,002,,14,02,049,,21,03,344,,23,26,242,,0*6F
$GPGSV,2,2,07,25,13,221,,32,18,311,,36,22,145,,0*58
$GAGSV,2,1,06,07,22,145,25,10,02,308,10,11,08,333,21,19,50,296,27,7*72
$GAGSV,2,2,06,21,30,211,27,27,73,143,29,7*7E
$GAGSV,1,1,03,29,70,190,,30,36,057,,36,08,019,,0*42
$GBGSV,2,1,05,20,33,310,28,23,82,220,26,32,50,232,34,37,29,247,29,3*72
$GBGSV,2,2,05,41,15,180,26,3*4D
$GBGSV,2,1,05,25,40,074,,34,18,081,,40,17,029,,43,06,124,,0*79
$GBGSV,2,2,05,44,13,029,,0*4B
$GNGLL,5434.78284,N,00556.20515,W,141749.00,A,A*69
$GNRMC,141750.00,A,5434.78284,N,00556.20515,W,0.023,,181124,,,A,V*0C
$GNVTG,,T,,M,0.023,N,0.043,K,A*3B
$GNGGA,141750.00,5434.78284,N,00556.20515,W,1,12,0.68,41.0,M,52.5,M,,*6E
$GNGSA,A,3,15,17,19,22,24,10,12,13,,,,,1.27,0.68,1.07,1*01
$GNGSA,A,3,07,19,27,21,,,,,,,,,1.27,0.68,1.07,3*06
$GNGSA,A,3,20,23,41,37,32,,,,,,,,1.27,0.68,1.07,4*0B
$GPGSV,3,1,09,10,32,289,31,12,50,200,33,13,09,138,26,15,31,164,27,1*6F
$GPGSV,3,2,09,17,27,054,16,19,32,090,32,22,22,052,13,24,85,119,33,1*6F
$GPGSV,3,3,09,49,27,167,29,1*5E
$GPGSV,2,1,07,02,06,002,,14,02,049,,21,03,344,,23,26,242,,0*6F
$GPGSV,2,2,07,25,13,221,,32,18,311,,36,22,145,,0*58
$GAGSV,2,1,06,07,22,145,24,10,02,308,09,11,08,333,21,19,50,296,27,7*7B
$GAGSV,2,2,06,21,30,211,27,27,73,143,29,7*7E
$GAGSV,1,1,03,29,70,190,,30,36,057,,36,08,019,,0*42
$GBGSV,2,1,05,20,33,310,28,23,82,220,26,32,50,232,35,37,29,247,28,3*72
$GBGSV,2,2,05,41,15,180,26,3*4D
$GBGSV,2,1,05,25,40,074,,34,18,081,,40,17,029,,43,06,124,,0*79
$GBGSV,2,2,05,44,12,029,,0*4A
$GNGLL,5434.78284,N,00556.20515,W,141750.00,A,A*61
$GNRMC,141751.00,A,5434.78284,N,00556.20515,W,0.039,,181124,,,A,V*06
$GNVTG,,T,,M,0.039,N,0.072,K,A*32
$GNGGA,141751.00,5434.78284,N,00556.20515,W,1,12,0.68,41.1,M,52.5,M,,*6E
$GNGSA,A,3,15,17,19,22,24,10,12,13,,,,,1.27,0.68,1.07,1*01
$GNGSA,A,3,07,19,27,21,,,,,,,,,1.27,0.68,1.07,3*06
$GNGSA,A,3,20,23,41,37,32,,,,,,,,1.27,0.68,1.07,4*0B
$GPGSV,3,1,09,10,32,289,31,12,50,200,33,13,09,138,26,15,31,164,27,1*6F
$GPGSV,3,2,09,17,27,054,16,19,32,090,32,22,22,052,09,24,85,119,34,1*63
$GPGSV,3,3,09,49,27,167,28,1*5F
$GPGSV,2,1,07,02,06,002,,14,02,049,,21,03,344,,23,26,242,,0*6F
$GPGSV,2,2,07,25,13,221,,32,18,311,,36,22,145,,0*58
$GAGSV,2,1,06,07,22,145,24,10,02,308,10,11,08,333,21,19,50,296,27,7*73
$GAGSV,2,2,06,21,30,211,28,27,73,143,29,7*71
$GAGSV,1,1,03,29,70,190,,30,36,057,,36,08,019,,0*42
$GBGSV,2,1,05,20,33,310,28,23,82,220,26,32,50,232,35,37,29,247,29,3*73
$GBGSV,2,2,05,41,15,180,26,3*4D
$GBGSV,2,1,05,25,40,074,,34,18,081,,40,17,029,,43,06,124,,0*79
$GBGSV,2,2,05,44,12,029,,0*4A
$GNGLL,5434.78284,N,00556.20515,W,141751.00,A,A*60
$GNRMC,141752.00,A,5434.78284,N,00556.20514,W,0.012,,181124,,,A,V*0D
$GNVTG,,T,,M,0.012,N,0.022,K,A*3E
$GNGGA,141752.00,5434.78284,N,00556.20514,W,1,12,0.68,41.1,M,52.5,M,,*6C
$GNGSA,A,3,15,17,19,22,24,10,12,13,,,,,1.27,0.68,1.07,1*01
$GNGSA,A,3,07,19,27,21,,,,,,,,,1.27,0.68,1.07,3*06
$GNGSA,A,3,20,23,41,37,32,,,,,,,,1.27,0.68,1.07,4*0B
$GPGSV,3,1,09,10,32,289,31,12,50,200,33,13,09,138,26,15,31,164,27,1*6F
$GPGSV,3,2,09,17,27,054,16,19,32,090,32,22,22,052,10,24,85,119,34,1*6B
$GPGSV,3,3,09,49,27,167,28,1*5F
$GPGSV,2,1,07,02,06,002,,14,02,049,,21,03,344,,23,26,242,,0*6F
$GPGSV,2,2,07,25,13,221,,32,18,311,,36,22,145,,0*58
$GAGSV,2,1,06,07,22,145,25,10,02,308,09,11,08,333,21,19,50,296,27,7*7A
$GAGSV,2,2,06,21,30,211,28,27,73,143,28,7*70
$GAGSV,1,1,03,29,70,190,,30,36,057,,36,08,019,,0*42
$GBGSV,2,1,05,20,33,310,28,23,82,220,26,32,50,232,34,37,29,247,29,3*72
$GBGSV,2,2,05,41,15,180,26,3*4D
$GBGSV,2,1,05,25,40,074,,34,18,081,,40,17,029,,43,06,124,,0*79
$GBGSV,2,2,05,44,12,029,,0*4A
$GNGLL,5434.78284,N,00556.20514,W,141752.00,A,A*62
$GNRMC,141753.00,A,5434.78284,N,00556.20514,W,0.032,,181124,,,A,V*0E
$GNVTG,,T,,M,0.032,N,0.059,K,A*30
$GNGGA,141753.00,5434.78284,N,00556.20514,W,1,12,0.74,41.1,M,52.5,M,,*60
$GNGSA,A,3,15,17,19,22,24,10,12,13,,,,,1.33,0.74,1.11,1*0E
$GNGSA,A,3,07,19,27,21,,,,,,,,,1.33,0.74,1.11,3*09
$GNGSA,A,3,20,23,41,37,32,,,,,,,,1.33,0.74,1.11,4*04
$GPGSV,3,1,09,10,32,289,30,12,50,200,33,13,09,138,26,15,31,164,27,1*6E
$GPGSV,3,2,09,17,27,054,16,19,32,090,32,22,22,052,07,24,85,119,34,1*6D
$GPGSV,3,3,09,49,27,167,28,1*5F
$GPGSV,2,1,07,02,06,002,,14,02,049,,21,03,344,,23,26,242,,0*6F
$GPGSV,2,2,07,25,13,221,,32,18,311,,36,22,145,,0*58
$GAGSV,2,1,06,07,22,145,24,10,02,308,11,11,08,333,20,19,50,296,27,7*73
$GAGSV,2,2,06,21,30,211,28,27,73,143,28,7*70
$GAGSV,1,1,03,29,70,190,,30,36,057,,36,08,019,,0*42
$GBGSV,2,1,05,20,33,310,28,23,82,220,26,32,50,232,34,37,29,247,29,3*72
$GBGSV,2,2,05,41,15,180,26,3*4D
$GBGSV,2,1,05,25,40,074,,34,18,081,,40,17,029,,43,06,124,,0*79
$GBGSV,2,2,05,44,12,029,,0*4A
$GNGLL,5434.78284,N,00556.20514,W,141753.00,A,A*63
$GNRMC,141754.00,A,5434.78285,N,00556.20513,W,0.018,,181124,,,A,V*07
$GNVTG,,T,,M,0.018,N,0.032,K,A*35
$GNGGA,141754.00,5434.78285,N,00556.20513,W,1,12,0.68,41.1,M,52.5,M,,*6C
$GNGSA,A,3,15,17,19,22,24,10,12,13,,,,,1.27,0.68,1.07,1*01
$GNGSA,A,3,07,19,27,21,,,,,,,,,1.27,0.68,1.07,3*06
$GNGSA,A,3,20,23,41,37,32,,,,,,,,1.27,0.68,1.07,4*0B
$GPGSV,3,1,09,10,32,289,30,12,50,200,32,13,09,138,26,15,31,164,27,1*6F
$GPGSV,3,2,09,17,27,054,16,19,32,090,32,22,22,052,12,24,85,119,33,1*6E
$GPGSV,3,3,09,49,27,167,29,1*5E
$GPGSV,2,1,07,02,06,002,,14,02,049,,21,03,344,,23,26,242,,0*6F
$GPGSV,2,2,07,25,13,221,,32,18,311,,36,22,145,,0*58
$GAGSV,2,1,06,07,22,145,24,10,02,308,11,11,08,333,21,19,50,296,27,7*72
$GAGSV,2,2,06,21,30,211,28,27,73,143,29,7*71
$GAGSV,1,1,03,29,70,190,,30,36,057,,36,08,019,,0*42
$GBGSV,2,1,05,20,33,310,28,23,82,220,26,32,50,232,34,37,29,247,29,3*72
$GBGSV,2,2,05,41,15,180,26,3*4D
$GBGSV,2,1,05,25,40,074,,34,18,081,,40,17,029,,43,06,124,,0*79
$GBGSV,2,2,05,44,12,029,,0*4A
$GNGLL,5434.78285,N,00556.20513,W,141754.00,A,A*62
$GNRMC,141755.00,A,5434.78285,N,00556.20512,W,0.039,,181124,,,A,V*04
$GNVTG,,T,,M,0.039,N,0.071,K,A*31
$GNGGA,141755.00,5434.78285,N,00556.20512,W,1,12,0.68,41.1,M,52.5,M,,*6C
$GNGSA,A,3,15,17,19,22,24,10,12,13,,,,,1.27,0.68,1.07,1*01
$GNGSA,A,3,07,19,27,21,,,,,,,,,1.27,0.68,1.07,3*06
$GNGSA,A,3,20,23,41,37,32,,,,,,,,1.27,0.68,1.07,4*0B
$GPGSV,3,1,09,10,32,289,30,12,50,200,32,13,09,138,25,15,31,164,27,1*6C
$GPGSV,3,2,09,17,27,054,16,19,32,090,32,22,22,052,10,24,85,119,34,1*6B
$GPGSV,3,3,09,49,27,167,29,1*5E
$GPGSV,2,1,07,02,06,002,,14,02,049,,21,03,344,,23,26,242,,0*6F
$GPGSV,2,2,07,25,13,221,,32,18,311,,36,22,145,,0*58
$GAGSV,2,1,06,07,22,145,24,10,02,308,08,11,08,333,22,19,50,296,27,7*79
$GAGSV,2,2,06,21,30,211,28,27,73,143,28,7*70
$GAGSV,1,1,03,29,70,190,,30,36,057,,36,08,019,,0*42
$GBGSV,2,1,05,20,33,310,28,23,82,220,26,32,50,232,34,37,29,247,29,3*72
$GBGSV,2,2,05,41,15,180,26,3*4D
$GBGSV,2,1,05,25,40,074,,34,18,081,,40,17,029,,43,06,124,,0*79
$GBGSV,2,2,05,44,12,029,,0*4A
$GNGLL,5434.78285,N,00556.20512,W,141755.00,A,A*62
$GNRMC,141756.00,A,5434.78285,N,00556.20510,W,0.082,,181124,,,A,V*05
$GNVTG,,T,,M,0.082,N,0.153,K,A*30
$GNGGA,141756.00,5434.78285,N,00556.20510,W,1,12,0.74,41.1,M,52.5,M,,*60
$GNGSA,A,3,15,17,19,22,24,10,12,13,,,,,1.33,0.74,1.11,1*0E
$GNGSA,A,3,07,19,27,21,,,,,,,,,1.33,0.74,1.11,3*09
$GNGSA,A,3,20,23,41,37,32,,,,,,,,1.33,0.74,1.11,4*04
$GPGSV,3,1,09,10,32,289,30,12,50,200,32,13,09,138,26,15,31,164,27,1*6F
$GPGSV,3,2,09,17,27,054,16,19,32,090,32,22,22,052,09,24,85,119,34,1*63
$GPGSV,3,3,09,49,27,167,28,1*5F
$GPGSV,2,1,07,02,06,002,,14,02,049,,21,03,344,,23,26,242,,0*6F
$GPGSV,2,2,07,25,13,221,,32,18,311,,36,22,145,,0*58
$GAGSV,2,1,06,07,22,145,24,10,02,308,07,11,08,333,21,19,50,296,27,7*75
$GAGSV,2,2,06,21,30,211,28,27,73,143,28,7*70
$GAGSV,1,1,03,29,70,190,,30,36,057,,36,08,019,,0*42
$GBGSV,2,1,05,20,33,310,29,23,82,220,26,32,50,232,34,37,29,247,29,3*73
$GBGSV,2,2,05,41,15,180,26,3*4D
$GBGSV,2,1,05,25,40,074,,34,18,081,,40,17,029,,43,06,124,,0*79
$GBGSV,2,2,05,44,12,029,,0*4A
$GNGLL,5434.78285,N,00556.20510,W,141756.00,A,A*63
$GNRMC,141757.00,A,5434.78285,N,00556.20509,W,0.025,,181124,,,A,V*01
$GNVTG,,T,,M,0.025,N,0.046,K,A*38
$GNGGA,141757.00,5434.78285,N,00556.20509,W,1,12,0.68,41.1,M,52.5,M,,*64
$GNGSA,A,3,15,17,19,22,24,10,12,13,,,,,1.27,0.68,1.07,1*01
$GNGSA,A,3,07,19,27,21,,,,,,,,,1.27,0.68,1.07,3*06
$GNGSA,A,3,20,23,41,37,32,,,,,,,,1.27,0.68,1.07,4*0B
$GPGSV,3,1,09,10,32,289,30,12,50,200,32,13,09,138,26,15,31,164,27,1*6F
$GPGSV,3,2,09,17,27,054,17,19,32,090,32,22,22,052,12,24,85,119,34,1*68
$GPGSV,3,3,09,49,27,167,29,1*5E
$GPGSV,2,1,07,02,06,002,,14,02,049,,21,03,344,,23,26,242,,0*6F
$GPGSV,2,2,07,25,13,221,,32,18,311,,36,22,145,,0*58
$GAGSV,2,1,06,07,22,145,24,10,02,308,09,11,08,333,21,19,50,296,27,7*7B
$GAGSV,2,2,06,21,30,211,28,27,73,143,28,7*70
$GAGSV,1,1,03,29,70,190,,30,36,057,,36,08,019,,0*42
$GBGSV,2,1,05,20,33,310,29,23,82,220,26,32,50,232,34,37,29,247,29,3*73
$GBGSV,2,2,05,41,15,180,26,3*4D
$GBGSV,2,1,05,25,40,074,,34,18,081,,40,17,029,,43,06,124,,0*79
$GBGSV,2,2,05,44,12,029,,0*4A
$GNGLL,5434.78285,N,00556.20509,W,141757.00,A,A*6A
$GNRMC,141758.00,A,5434.78285,N,00556.20509,W,0.024,,181124,,,A,V*0F
$GNVTG,,T,,M,0.024,N,0.045,K,A*3A
$GNGGA,141758.00,5434.78285,N,00556.20509,W,1,12,0.68,41.1,M,52.5,M,,*6B
$GNGSA,A,3,15,17,19,22,24,10,12,13,,,,,1.27,0.68,1.07,1*01
$GNGSA,A,3,07,19,27,21,,,,,,,,,1.27,0.68,1.07,3*06
$GNGSA,A,3,20,23,41,37,32,,,,,,,,1.27,0.68,1.07,4*0B
$GPGSV,3,1,09,10,32,289,30,12,50,200,32,13,09,138,26,15,31,164,27,1*6F
$GPGSV,3,2,09,17,27,054,16,19,32,090,32,22,22,052,08,24,85,119,33,1*65
$GPGSV,3,3,09,49,27,167,29,1*5E
$GPGSV,2,1,07,02,06,002,,14,02,049,,21,03,344,,23,26,242,,0*6F
$GPGSV,2,2,07,25,13,221,,32,18,311,,36,22,145,,0*58
$GAGSV,2,1,06,07,22,145,24,10,02,308,09,11,08,333,21,19,50,296,27,7*7B
$GAGSV,2,2,06,21,30,211,28,27,73,143,28,7*70
$GAGSV,1,1,03,29,70,190,,30,36,057,,36,08,019,,0*42
$GBGSV,2,1,05,20,33,310,29,23,82,220,26,32,50,232,34,37,29,247,29,3*73
$GBGSV,2,2,05,41,15,180,26,3*4D
$GBGSV,2,1,05,25,40,074,,34,18,081,,40,17,029,,43,06,124,,0*79
$GBGSV,2,2,05,44,12,029,,0*4A
$GNGLL,5434.78285,N,00556.20509,W,141758.00,A,A*65
$GNRMC,141759.00,A,5434.78285,N,00556.20509,W,0.036,,181124,,,A,V*0D
$GNVTG,,T,,M,0.036,N,0.066,K,A*38
$GNGGA,141759.00,5434.78285,N,00556.20509,W,1,12,0.74,41.1,M,52.5,M,,*67
$GNGSA,A,3,15,17,19,22,24,10,12,13,,,,,1.33,0.74,1.11,1*0E
$GNGSA,A,3,07,19,27,21,,,,,,,,,1.33,0.74,1.11,3*09
$GNGSA,A,3,20,23,41,37,32,,,,,,,,1.33,0.74,1.11,4*04
$GPGSV,3,1,09,10,32,289,30,12,50,200,32,13,09,138,25,15,31,164,28,1*63
$GPGSV,3,2,09,17,27,054,16,19,32,090,32,22,22,052,11,24,85,119,34,1*6A
$GPGSV,3,3,09,49,27,167,29,1*5E
$GPGSV,2,1,07,02,06,002,,14,02,049,,21,03,344,,23,26,242,,0*6F
$GPGSV,2,2,07,25,13,221,,32,18,311,,36,22,145,,0*58
$GAGSV,2,1,06,07,22,145,23,10,02,308,06,11,08,333,22,19,50,296,27,7*70
$GAGSV,2,2,06,21,30,211,28,27,73,143,28,7*70
$GAGSV,1,1,03,29,70,190,,30,36,057,,36,08,019,,0*42
$GBGSV,2,1,05,20,33,310,29,23,82,220,26,32,50,232,34,37,29,247,29,3*73
$GBGSV,2,2,05,41,15,180,25,3*4E
$GBGSV,2,1,05,25,40,074,,34,18,081,,40,17,029,,43,06,124,,0*79
$GBGSV,2,2,05,44,12,029,,0*4A
$GNGLL,5434.78285,N,00556.20509,W,141759.00,A,A*64
$GNRMC,141800.00,A,5434.78285,N,00556.20508,W,0.042,,181124,,,A,V*0C
$GNVTG,,T,,M,0.042,N,0.078,K,A*34
$GNGGA,141800.00,5434.78285,N,00556.20508,W,1,12,0.68,41.1,M,52.5,M,,*68
$GNGSA,A,3,15,17,19,22,24,10,12,13,,,,,1.27,0.68,1.07,1*01
$GNGSA,A,3,07,19,27,21,,,,,,,,,1.27,0.68,1.07,3*06
$GNGSA,A,3,20,23,41,37,32,,,,,,,,1.27,0.68,1.07,4*0B
$GPGSV,3,1,09,10,32,289,30,12,50,200,32,13,09,138,26,15,31,164,28,1*60
$GPGSV,3,2,09,17,27,054,15,19,32,090,32,22,22,052,12,24,85,119,33,1*6D
$GPGSV,3,3,09,49,27,167,28,1*5F
$GPGSV,2,1,07,02,06,002,,14,02,049,,21,03,344,,23,26,242,,0*6F
$GPGSV,2,2,07,25,13,221,,32,18,311,,36,22,145,,0*58
$GAGSV,2,1,06,07,22,145,23,10,02,308,10,11,08,333,22,19,50,296,27,7*77
$GAGSV,2,2,06,21,30,211,28,27,73,143,28,7*70
$GAGSV,1,1,03,29,70,190,,30,36,057,,36,08,019,,0*42
$GBGSV,2,1,05,20,33,310,29,23,82,220,26,32,50,232,34,37,29,247,29,3*73
$GBGSV,2,2,05,41,15,180,25,3*4E
$GBGSV,2,1,05,25,40,074,,34,18,081,,40,17,029,,43,06,124,,0*79
$GBGSV,2,2,05,44,12,029,,0*4A
$GNGLL,5434.78285,N,00556.20508,W,141800.00,A,A*66
$GNRMC,141801.00,A,5434.78286,N,00556.20507,W,0.116,,181124,,,A,V*01
$GNVTG,,T,,M,0.116,N,0.215,K,A*3D
$GNGGA,141801.00,5434.78286,N,00556.20507,W,1,12,0.68,41.1,M,52.5,M,,*65
$GNGSA,A,3,15,17,19,22,24,10,12,13,,,,,1.27,0.68,1.07,1*01
$GNGSA,A,3,07,19,27,21,,,,,,,,,1.27,0.68,1.07,3*06
$GNGSA,A,3,20,23,41,37,32,,,,,,,,1.27,0.68,1.07,4*0B
$GPGSV,3,1,09,10,32,289,30,12,50,200,32,13,09,138,25,15,31,164,27,1*6C
$GPGSV,3,2,09,17,27,054,16,19,32,090,32,22,22,052,10,24,85,119,33,1*6C
$GPGSV,3,3,09,49,27,167,29,1*5E
$GPGSV,2,1,07,02,06,002,,14,02,049,,21,03,344,,23,26,242,,0*6F
$GPGSV,2,2,07,25,13,221,,32,18,311,,36,22,145,,0*58
$GAGSV,2,1,06,07,22,145,23,10,02,308,08,11,08,333,22,19,50,296,27,7*7E
$GAGSV,2,2,06,21,30,211,28,27,73,143,28,7*70
$GAGSV,1,1,03,29,70,190,,30,36,057,,36,08,019,,0*42
$GBGSV,2,1,05,20,33,310,29,23,82,220,26,32,50,232,34,37,29,247,29,3*73
$GBGSV,2,2,05,41,15,180,26,3*4D
$GBGSV,2,1,05,25,40,074,,34,18,081,,40,17,029,,43,06,124,,0*79
$GBGSV,2,2,05,44,12,029,,0*4A
$GNGLL,5434.78286,N,00556.20507,W,141801.00,A,A*6B
$GNRMC,141802.00,A,5434.78284,N,00556.20509,W,0.051,,181124,,,A,V*0C
$GNVTG,,T,,M,0.051,N,0.094,K,A*34
$GNGGA,141802.00,5434.78284,N,00556.20509,W,1,12,0.74,41.1,M,52.5,M,,*67
$GNGSA,A,3,15,17,19,24,10,12,13,,,,,,1.33,0.74,1.11,1*0E
$GNGSA,A,3,07,19,27,21,,,,,,,,,1.33,0.74,1.11,3*09
$GNGSA,A,3,20,23,41,37,32,,,,,,,,1.33,0.74,1.11,4*04
$GPGSV,3,1,09,10,32,289,30,12,50,200,32,13,09,138,26,15,31,164,28,1*60
$GPGSV,3,2,09,17,27,054,15,19,32,090,32,22,22,052,05,24,85,119,34,1*6C
$GPGSV,3,3,09,49,27,167,29,1*5E
$GPGSV,2,1,07,02,06,002,,14,02,049,,21,03,344,,23,26,242,,0*6F
$GPGSV,2,2,07,25,13,221,,32,18,311,,36,22,145,,0*58
$GAGSV,2,1,06,07,22,145,23,10,02,308,10,11,08,333,22,19,50,296,27,7*77
$GAGSV,2,2,06,21,30,211,28,27,73,143,28,7*70
$GAGSV,1,1,03,29,70,190,,30,36,057,,36,08,019,,0*42
$GBGSV,2,1,05,20,33,310,29,23,82,220,26,32,50,232,34,37,29,247,29,3*73
$GBGSV,2,2,05,41,15,180,26,3*4D
$GBGSV,2,1,05,25,40,074,,34,18,081,,40,17,029,,43,06,124,,0*79
$GBGSV,2,2,05,44,12,029,,0*4A
$GNGLL,5434.78284,N,00556.20509,W,141802.00,A,A*64
$GNRMC,141803.00,A,5434.78284,N,00556.20510,W,0.042,,181124,,,A,V*07
$GNVTG,,T,,M,0.042,N,0.078,K,A*34
$GNGGA,141803.00,5434.78284,N,00556.20510,W,1,12,0.68,41.2,M,52.5,M,,*60
$GNGSA,A,3,15,17,19,22,24,10,12,13,,,,,1.27,0.68,1.07,1*01
$GNGSA,A,3,07,19,27,21,,,,,,,,,1.27,0.68,1.07,3*06
$GNGSA,A,3,20,23,41,37,32,,,,,,,,1.27,0.68,1.07,4*0B
$GPGSV,3,1,09,10,32,289,31,12,50,200,32,13,09,138,25,15,31,164,28,1*62
$GPGSV,3,2,09,17,27,054,15,19,32,090,32,22,22,052,10,24,85,119,34,1*68
$GPGSV,3,3,09,49,27,167,29,1*5E
$GPGSV,2,1,07,02,06,002,,14,02,049,,21,03,344,,23,26,242,,0*6F
$GPGSV,2,2,07,25,13,221,,32,18,311,,36,22,145,,0*58
$GAGSV,2,1,06,07,22,145,23,10,02,308,06,11,08,333,22,19,50,296,27,7*70
$GAGSV,2,2,06,21,30,211,28,27,73,143,28,7*70
$GAGSV,1,1,03,29,70,190,,30,36,057,,36,08,019,,0*42
$GBGSV,2,1,05,20,33,310,29,23,82,220,26,32,50,232,34,37,29,247,29,3*73
$GBGSV,2,2,05,41,15,180,26,3*4D
$GBGSV,2,1,05,25,40,074,,34,18,081,,40,17,029,,43,06,124,,0*79
$GBGSV,2,2,05,44,12,029,,0*4A
$GNGLL,5434.78284,N,00556.20510,W,141803.00,A,A*6D
$GNRMC,141804.00,A,5434.78284,N,00556.20510,W,0.016,,181124,,,A,V*01
$GNVTG,,T,,M,0.016,N,0.030,K,A*39
$GNGGA,141804.00,5434.78284,N,00556.20510,W,1,12,0.68,41.2,M,52.5,M,,*67
$GNGSA,A,3,15,17,19,22,24,10,12,13,,,,,1.27,0.68,1.07,1*01
$GNGSA,A,3,07,19,27,21,,,,,,,,,1.27,0.68,1.07,3*06
$GNGSA,A,3,20,23,41,37,32,,,,,,,,1.27,0.68,1.07,4*0B
$GPGSV,3,1,09,10,32,289,31,12,50,200,32,13,09,138,26,15,31,164,28,1*61
$GPGSV,3,2,09,17,27,054,15,19,32,090,32,22,22,052,11,24,85,119,33,1*6E
$GPGSV,3,3,09,49,27,167,28,1*5F
$GPGSV,2,1,07,02,06,002,,14,02,049,,21,03,344,,23,26,242,,0*6F
$GPGSV,2,2,07,25,13,221,,32,18,311,,36,22,145,,0*58
$GAGSV,2,1,06,07,22,145,23,10,02,308,08,11,08,333,21,19,50,296,27,7*7D
$GAGSV,2,2,06,21,30,211,28,27,73,143,28,7*70
$GAGSV,1,1,03,29,70,190,,30,36,057,,36,08,019,,0*42
$GBGSV,2,1,05,20,33,310,29,23,82,220,26,32,50,232,34,37,29,247,29,3*73
$GBGSV,2,2,05,41,15,180,26,3*4D
$GBGSV,2,1,05,25,40,074,,34,18,081,,40,17,029,,43,06,124,,0*79
$GBGSV,2,2,05,44,12,029,,0*4A
$GNGLL,5434.78284,N,00556.20510,W,141804.00,A,A*6A
$GNRMC,141805.00,A,5434.78284,N,00556.20512,W,0.031,,181124,,,A,V*07
$GNVTG,,T,,M,0.031,N,0.057,K,A*3D
$GNGGA,141805.00,5434.78284,N,00556.20512,W,1,12,0.74,41.2,M,52.5,M,,*69
$GNGSA,A,3,15,17,19,22,24,10,12,13,,,,,1.33,0.74,1.11,1*0E
$GNGSA,A,3,07,19,27,21,,,,,,,,,1.33,0.74,1.11,3*09
$GNGSA,A,3,20,23,41,37,32,,,,,,,,1.33,0.74,1.11,4*04
$GPGSV,3,1,09,10,32,289,31,12,50,200,32,13,09,138,26,15,31,164,28,1*61
$GPGSV,3,2,09,17,27,054,15,19,32,090,32,22,22,052,10,24,85,119,33,1*6F
$GPGSV,3,3,09,49,27,167,28,1*5F
$GPGSV,2,1,07,02,06,002,,14,02,049,,21,03,344,,23,26,242,,0*6F
$GPGSV,2,2,07,25,13,221,,32,18,311,,36,22,145,,0*58
$GAGSV,2,1,06,07,22,145,23,10,02,308,09,11,08,333,22,19,50,296,27,7*7F
$GAGSV,2,2,06,21,30,211,28,27,73,143,28,7*70
$GAGSV,1,1,03,29,70,190,,30,36,057,,36,08,019,,0*42
$GBGSV,2,1,05,20,33,310,29,23,82,220,26,32,50,232,34,37,29,247,29,3*73
$GBGSV,2,2,05,41,15,180,26,3*4D
$GBGSV,2,1,05,25,40,074,,34,18,081,,40,17,029,,43,06,124,,0*79
$GBGSV,2,2,05,44,12,029,,0*4A
$GNGLL,5434.78284,N,00556.20512,W,141805.00,A,A*69
$GNRMC,141806.00,A,5434.78285,N,00556.20512,W,0.017,,181124,,,A,V*01
$GNVTG,,T,,M,0.017,N,0.032,K,A*3A
$GNGGA,141806.00,5434.78285,N,00556.20512,W,1,12,0.68,41.2,M,52.5,M,,*66
$GNGSA,A,3,15,17,19,22,24,10,12,13,,,,,1.27,0.68,1.07,1*01
$GNGSA,A,3,07,19,27,21,,,,,,,,,1.27,0.68,1.07,3*06
$GNGSA,A,3,20,23,41,37,32,,,,,,,,1.27,0.68,1.07,4*0B
$GPGSV,3,1,09,10,32,289,31,12,50,200,32,13,09,138,26,15,31,164,27,1*6E
$GPGSV,3,2,09,17,27,054,15,19,32,090,32,22,22,052,10,24,85,119,33,1*6F
$GPGSV,3,3,09,49,27,167,28,1*5F
$GPGSV,2,1,07,02,06,002,,14,02,049,,21,03,344,,23,26,242,,0*6F
$GPGSV,2,2,07,25,13,221,,32,18,311,,36,22,145,,0*58
$GAGSV,2,1,06,07,22,145,23,10,02,308,11,11,08,333,22,19,50,296,27,7*76
$GAGSV,2,2,06,21,30,211,28,27,73,143,28,7*70
$GAGSV,1,1,03,29,70,190,,30,36,057,,36,08,019,,0*42
$GBGSV,2,1,05,20,33,310,29,23,82,220,26,32,50,232,34,37,29,247,29,3*73
$GBGSV,2,2,05,41,15,180,26,3*4D
$GBGSV,2,1,05,25,40,074,,34,18,081,,40,17,029,,43,06,124,,0*79
$GBGSV,2,2,05,44,12,029,,0*4A
$GNGLL,5434.78285,N,00556.20512,W,141806.00,A,A*6B
$GNRMC,141807.00,A,5434.78284,N,00556.20511,W,0.031,,181124,,,A,V*06
$GNVTG,,T,,M,0.031,N,0.058,K,A*32
$GNGGA,141807.00,5434.78284,N,00556.20511,W,1,12,0.68,41.2,M,52.5,M,,*65
$GNGSA,A,3,15,17,19,22,24,10,12,13,,,,,1.27,0.68,1.07,1*01
$GNGSA,A,3,07,19,27,21,,,,,,,,,1.27,0.68,1.07,3*06
$GNGSA,A,3,20,23,41,37,32,,,,,,,,1.27,0.68,1.07,4*0B
$GPGSV,3,1,09,10,32,289,31,12,50,200,32,13,08,138,25,15,31,164,27,1*6C
$GPGSV,3,2,09,17,27,054,15,19,32,090,32,22,22,052,10,24,85,119,33,1*6F
$GPGSV,3,3,09,49,27,167,29,1*5E
$GPGSV,2,1,07,02,06,002,,14,02,049,,21,03,344,,23,26,242,,0*6F
$GPGSV,2,2,07,25,13,221,,32,18,311,,36,22,145,,0*58
$GAGSV,2,1,06,07,22,145,23,10,02,308,09,11,08,333,22,19,50,296,27,7*7F
$GAGSV,2,2,06,21,30,211,28,27,73,143,28,7*70
$GAGSV,1,1,03,29,70,190,,30,36,057,,36,08,019,,0*42
$GBGSV,2,1,05,20,33,310,29,23,82,220,26,32,50,232,34,37,29,247,30,3*7B
$GBGSV,2,2,05,41,15,180,26,3*4D
$GBGSV,2,1,05,25,40,074,,34,18,081,,40,17,029,,43,06,124,,0*79
$GBGSV,2,2,05,44,12,029,,0*4A
$GNGLL,5434.78284,N,00556.20511,W,141807.00,A,A*68
$GNRMC,141808.00,A,5434.78284,N,00556.20512,W,0.054,,181124,,,A,V*09
$GNVTG,,T,,M,0.054,N,0.101,K,A*3C
$GNGGA,141808.00,5434.78284,N,00556.20512,W,1,12,0.68,41.2,M,52.5,M,,*69
$GNGSA,A,3,15,17,19,22,24,10,12,13,,,,,1.27,0.68,1.07,1*01
$GNGSA,A,3,07,19,27,21,,,,,,,,,1.27,0.68,1.07,3*06
$GNGSA,A,3,20,23,41,37,32,,,,,,,,1.27,0.68,1.07,4*0B
$GPGSV,3,1,09,10,32,289,31,12,50,200,32,13,08,138,25,15,31,164,27,1*6C
$GPGSV,3,2,09,17,27,054,16,19,32,090,32,22,22,052,08,24,85,119,33,1*65
$GPGSV,3,3,09,49,27,167,29,1*5E
$GPGSV,2,1,07,02,06,002,,14,02,049,,21,03,344,,23,26,242,,0*6F
$GPGSV,2,2,07,25,13,221,,32,18,311,,36,22,145,,0*58
$GAGSV,2,1,06,07,22,145,23,10,02,308,09,11,08,333,22,19,50,296,27,7*7F
$GAGSV,2,2,06,21,30,211,28,27,73,143,28,7*70
$GAGSV,1,1,03,29,70,190,,30,36,057,,36,08,019,,0*42
$GBGSV,2,1,05,20,33,310,29,23,82,220,26,32,50,232,34,37,29,247,30,3*7B
$GBGSV,2,2,05,41,15,180,26,3*4D
$GBGSV,2,1,05,25,40,074,,34,18,081,,40,17,029,,43,06,124,,0*79
$GBGSV,2,2,05,44,12,029,,0*4A
$GNGLL,5434.78284,N,00556.20512,W,141808.00,A,A*64
$GNRMC,141809.00,A,5434.78285,N,00556.20514,W,0.049,,181124,,,A,V*03
$GNVTG,,T,,M,0.049,N,0.091,K,A*38
$GNGGA,141809.00,5434.78285,N,00556.20514,W,1,12,0.68,41.2,M,52.5,M,,*6F
$GNGSA,A,3,15,17,19,22,24,10,12,13,,,,,1.27,0.68,1.07,1*01
$GNGSA,A,3,07,19,27,21,,,,,,,,,1.27,0.68,1.07,3*06
$GNGSA,A,3,20,23,41,37,32,,,,,,,,1.27,0.68,1.07,4*0B
$GPGSV,3,1,09,10,32,289,31,12,50,200,32,13,08,138,25,15,30,164,27,1*6D
$GPGSV,3,2,09,17,27,054,16,19,32,090,32,22,22,052,12,24,85,119,33,1*6E
$GPGSV,3,3,09,49,27,167,29,1*5E
$GPGSV,2,1,07,02,06,002,,14,02,049,,21,03,344,,23,26,242,,0*6F
$GPGSV,2,2,07,25,13,221,,32,18,311,,36,22,145,,0*58
$GAGSV,2,1,06,07,22,145,23,10,02,308,08,11,08,333,22,19,50,296,27,7*7E
$GAGSV,2,2,06,21,30,211,28,27,73,143,28,7*70
$GAGSV,1,1,03,29,70,190,,30,36,057,,36,08,019,,0*42
$GBGSV,2,1,05,20,33,310,29,23,82,220,26,32,50,232,34,37,29,247,29,3*73
$GBGSV,2,2,05,41,15,180,26,3*4D
$GBGSV,2,1,05,25,40,074,,34,18,081,,40,17,029,,43,06,124,,0*79
$GBGSV,2,2,05,44,12,029,,0*4A
$GNGLL,5434.78285,N,00556.20514,W,141809.00,A,A*62
$GNRMC,141810.00,A,5434.78285,N,00556.20514,W,0.042,,181124,,,A,V*00
$GNVTG,,T,,M,0.042,N,0.078,K,A*34
$GNGGA,141810.00,5434.78285,N,00556.20514,W,1,12,0.68,41.2,M,52.5,M,,*67
$GNGSA,A,3,15,17,19,22,24,10,12,13,,,,,1.27,0.68,1.07,1*01
$GNGSA,A,3,07,19,27,21,,,,,,,,,1.27,0.68,1.07,3*06
$GNGSA,A,3,20,23,41,37,32,,,,,,,,1.27,0.68,1.07,4*0B
$GPGSV,3,1,09,10,32,289,31,12,50,200,32,13,08,138,25,15,30,164,27,1*6D
$GPGSV,3,2,09,17,27,054,16,19,32,090,32,22,22,052,10,24,85,119,33,1*6C
$GPGSV,3,3,09,49,27,167,28,1*5F
$GPGSV,2,1,07,02,06,002,,14,02,049,,21,03,344,,23,26,242,,0*6F
$GPGSV,2,2,07,25,13,221,,32,18,311,,36,22,145,,0*58
$GAGSV,2,1,06,07,22,145,23,10,02,308,07,11,08,333,22,19,50,296,27,7*71
$GAGSV,2,2,06,21,30,211,28,27,73,143,28,7*70
$GAGSV,1,1,03,29,70,190,,30,36,057,,36,08,019,,0*42
$GBGSV,2,1,05,20,33,310,29,23,82,220,26,32,50,232,34,37,29,247,29,3*73
$GBGSV,2,2,05,41,15,180,26,3*4D
$GBGSV,2,1,05,25,40,074,,34,18,081,,40,17,029,,43,06,124,,0*79
$GBGSV,2,2,05,44,12,029,,0*4A
$GNGLL,5434.78285,N,00556.20514,W,141810.00,A,A*6A
$GNRMC,141811.00,A,5434.78286,N,00556.20514,W,0.008,,181124,,,A,V*0C
$GNVTG,,T,,M,0.008,N,0.015,K,A*31
$GNGGA,141811.00,5434.78286,N,00556.20514,W,1,12,0.68,41.2,M,52.5,M,,*65
$GNGSA,A,3,15,17,19,22,24,10,12,13,,,,,1.27,0.68,1.07,1*01
$GNGSA,A,3,07,19,27,21,,,,,,,,,1.27,0.68,1.07,3*06
$GNGSA,A,3,20,23,41,37,32,,,,,,,,1.27,0.68,1.07,4*0B
$GPGSV,3,1,09,10,32,289,31,12,50,200,32,13,08,138,25,15,30,164,27,1*6D
$GPGSV,3,2,09,17,27,053,16,19,32,090,33,22,22,052,09,24,85,119,33,1*62
$GPGSV,3,3,09,49,27,167,29,1*5E
$GPGSV,2,1,07,02,06,002,,14,02,049,,21,03,344,,23,26,242,,0*6F
$GPGSV,2,2,07,25,13,221,,32,18,311,,36,22,145,,0*58
$GAGSV,2,1,06,07,22,145,23,10,02,308,08,11,08,333,22,19,50,296,27,7*7E
$GAGSV,2,2,06,21,30,211,28,27,73,143,28,7*70
$GAGSV,1,1,03,29,70,190,,30,36,057,,36,08,019,,0*42
$GBGSV,2,1,05,20,33,310,29,23,82,220,26,32,50,232,34,37,29,247,29,3*73
$GBGSV,2,2,05,41,15,180,26,3*4D
$GBGSV,2,1,05,25,40,074,,34,18,081,,40,17,029,,43,06,124,,0*79
$GBGSV,2,2,05,44,12,029,,0*4A
$GNGLL,5434.78286,N,00556.20514,W,141811.00,A,A*68
$GNRMC,141812.00,A,5434.78286,N,00556.20514,W,0.024,,181124,,,A,V*01
$GNVTG,,T,,M,0.024,N,0.044,K,A*3B
$GNGGA,141812.00,5434.78286,N,00556.20514,W,1,12,0.68,41.3,M,52.5,M,,*67
$GNGSA,A,3,15,17,19,22,24,10,12,13,,,,,1.27,0.68,1.07,1*01
